$GPGGA,194000.000,3401.8431,N,11711.4761,W,2,10,1.0,478.9,M,-32.5,M,2.0,0000*4D
$GPGSA,M,3,32,10,27,23,20,21,18,08,24,11,,,1.9,1.0,1.6*32
$GPRMC,194000.000,A,3401.8431,N,11711.4761,W,24.43,145.27,061020,,,D*4F
$GPGGA,194001.000,3401.8372,N,11711.4713,W,2,10,1.0,479.5,M,-32.5,M,2.0,0000*44
$GPGSA,M,3,32,10,27,23,20,21,18,08,24,11,,,1.9,1.0,1.6*32
$GPRMC,194001.000,A,3401.8372,N,11711.4713,W,25.83,144.41,061020,,,D*47
$GPGGA,194002.000,3401.8310,N,11711.4661,W,2,10,1.0,480.1,M,-32.5,M,2.0,0000*45
$GPGSA,M,3,32,10,27,23,20,21,18,08,24,11,,,1.9,1.0,1.6*32
$GPRMC,194002.000,A,3401.8310,N,11711.4661,W,27.01,145.02,061020,,,D*4A
$GPGGA,194003.000,3401.8247,N,11711.4608,W,2,10,1.0,480.7,M,-32.5,M,3.0,0000*4F
$GPGSA,M,3,32,10,27,23,20,21,18,08,24,11,,,1.9,1.0,1.6*32
$GPGSV,3,1,12,32,62,208,47,10,62,006,49,27,46,259,45,23,43,052,40*77
$GPGSV,3,2,12,20,42,061,40,21,36,316,45,18,30,122,44,08,29,300,41*71
$GPGSV,3,3,12,24,19,061,39,11,10,317,33,51,49,162,48,15,72,060,*7A
$GPRMC,194003.000,A,3401.8247,N,11711.4608,W,27.97,144.60,061020,,,D*4D
$GPGGA,194004.000,3401.8181,N,11711.4553,W,2,10,1.0,481.3,M,-32.5,M,4.0,0000*4E
$GPGSA,M,3,32,10,27,23,20,21,18,08,24,11,,,1.9,1.0,1.6*32
$GPRMC,194004.000,A,3401.8181,N,11711.4553,W,28.81,144.97,061020,,,D*4E
$GPGGA,194005.000,3401.8114,N,11711.4498,W,2,10,1.0,481.9,M,-32.5,M,2.0,0000*49
$GPGSA,M,3,32,10,27,23,20,21,18,08,24,11,,,1.9,1.0,1.6*32
$GPRMC,194005.000,A,3401.8114,N,11711.4498,W,28.43,145.38,061020,,,D*4F
$GPGGA,194006.000,3401.8049,N,11711.4446,W,2,10,1.0,482.6,M,-32.5,M,2.0,0000*4C
$GPGSA,M,3,32,10,27,23,20,21,18,08,24,11,,,1.9,1.0,1.6*32
$GPRMC,194006.000,A,3401.8049,N,11711.4446,W,27.27,145.97,061020,,,D*4E
$GPGGA,194007.000,3401.7986,N,11711.4396,W,2,10,1.0,483.3,M,-32.5,M,2.0,0000*46
$GPGSA,M,3,32,10,27,23,20,21,18,08,24,11,,,1.9,1.0,1.6*32
$GPRMC,194007.000,A,3401.7986,N,11711.4396,W,26.87,146.48,061020,,,D*4A
$GPGGA,194008.000,3401.7922,N,11711.4347,W,2,10,1.0,484.0,M,-32.5,M,2.0,0000*4F
$GPGSA,M,3,32,10,27,23,20,21,18,08,24,11,,,1.9,1.0,1.6*32
$GPGSV,3,1,12,32,62,208,47,10,62,006,49,27,46,259,45,23,43,052,46*71
$GPGSV,3,2,12,20,42,061,47,21,36,316,45,18,30,122,44,08,29,300,41*76
$GPGSV,3,3,12,24,19,061,35,11,10,317,37,51,49,162,47,15,72,060,*7D
$GPRMC,194008.000,A,3401.7922,N,11711.4347,W,26.83,147.89,061020,,,D*4F
$GPGGA,194009.000,3401.7858,N,11711.4302,W,2,10,1.0,484.8,M,-32.5,M,2.0,0000*4B
$GPGSA,M,3,32,10,27,23,20,21,18,08,24,11,,,1.9,1.0,1.6*32
$GPRMC,194009.000,A,3401.7858,N,11711.4302,W,26.64,150.28,061020,,,D*47
$GPGGA,194010.000,3401.7792,N,11711.4261,W,2,10,1.0,485.6,M,-32.5,M,3.0,0000*40
$GPGSA,M,3,32,10,27,23,20,21,18,08,24,11,,,1.9,1.0,1.6*32
$GPRMC,194010.000,A,3401.7792,N,11711.4261,W,26.43,153.46,061020,,,D*4C
$GPGGA,194011.000,3401.7725,N,11711.4225,W,2,10,1.0,486.4,M,-32.5,M,2.0,0000*4D
$GPGSA,M,3,32,10,27,23,20,21,18,08,24,11,,,1.9,1.0,1.6*32
$GPRMC,194011.000,A,3401.7725,N,11711.4225,W,26.15,156.76,061020,,,D*44
$GPGGA,194012.000,3401.7657,N,11711.4192,W,2,10,1.0,487.2,M,-32.5,M,2.0,0000*42
$GPGSA,M,3,32,10,27,23,20,21,18,08,24,11,,,1.9,1.0,1.6*32
$GPRMC,194012.000,A,3401.7657,N,11711.4192,W,26.32,158.50,061020,,,D*43
$GPGGA,194013.000,3401.7588,N,11711.4160,W,2,10,1.0,488.0,M,-32.5,M,2.0,0000*42
$GPGSA,M,3,32,10,27,23,20,21,18,08,24,11,,,1.9,1.0,1.6*32
$GPGSV,3,1,12,32,62,208,46,10,62,006,49,27,46,259,40,23,43,052,46*75
$GPGSV,3,2,12,20,42,061,46,21,36,316,35,18,30,122,44,08,29,300,31*77
$GPGSV,3,3,12,24,19,061,38,11,10,317,38,51,49,162,47,15,72,060,*7F
$GPRMC,194013.000,A,3401.7588,N,11711.4160,W,26.74,158.45,061020,,,D*48
$GPGGA,194014.000,3401.7518,N,11711.4126,W,2,10,1.0,488.5,M,-32.5,M,3.0,0000*4A
$GPGSA,M,3,32,10,27,23,20,21,18,08,24,11,,,1.9,1.0,1.6*32
$GPRMC,194014.000,A,3401.7518,N,11711.4126,W,27.33,156.13,061020,,,D*4B
$GPGGA,194015.000,3401.7449,N,11711.4086,W,2,10,1.0,489.0,M,-32.5,M,4.0,0000*46
$GPGSA,M,3,32,10,27,23,20,21,18,08,24,11,,,1.9,1.0,1.6*32
$GPRMC,194015.000,A,3401.7449,N,11711.4086,W,27.92,152.37,061020,,,D*4D
$GPGGA,194016.000,3401.7380,N,11711.4039,W,2,10,1.0,489.4,M,-32.5,M,5.0,0000*46
$GPGSA,M,3,32,10,27,23,20,21,18,08,24,11,,,1.9,1.0,1.6*32
$GPRMC,194016.000,A,3401.7380,N,11711.4039,W,28.49,148.00,061020,,,D*4E
$GPGGA,194017.000,3401.7314,N,11711.3985,W,2,10,1.0,489.8,M,-32.5,M,2.0,0000*48
$GPGSA,M,3,32,10,27,23,20,21,18,08,24,11,,,1.9,1.0,1.6*32
$GPRMC,194017.000,A,3401.7314,N,11711.3985,W,29.09,143.34,061020,,,D*42
$GPGGA,194018.000,3401.7251,N,11711.3923,W,2,10,1.0,490.2,M,-32.5,M,2.0,0000*49
$GPGSA,M,3,32,10,27,23,20,21,18,08,24,11,,,1.9,1.0,1.6*32
$GPGSV,3,1,12,32,62,208,48,10,62,006,49,27,46,259,44,23,43,052,46*7F
$GPGSV,3,2,12,20,42,061,46,21,36,316,44,18,30,122,44,08,29,300,41*76
$GPGSV,3,3,12,24,19,061,26,11,10,317,34,51,49,162,47,15,72,060,*7C
$GPRMC,194018.000,A,3401.7251,N,11711.3923,W,29.62,138.47,061020,,,D*44
$GPGGA,194019.000,3401.7191,N,11711.3853,W,2,10,1.0,490.8,M,-32.5,M,2.0,0000*4B
$GPGSA,M,3,32,10,27,23,20,21,18,08,24,11,,,1.9,1.0,1.6*32
$GPRMC,194019.000,A,3401.7191,N,11711.3853,W,30.15,134.69,061020,,,D*44
$GPGGA,194020.000,3401.7133,N,11711.3780,W,2,10,1.0,491.4,M,-32.5,M,3.0,0000*44
$GPGSA,M,3,32,10,27,23,20,21,18,08,24,11,,,1.9,1.0,1.6*32
$GPRMC,194020.000,A,3401.7133,N,11711.3780,W,30.52,133.32,061020,,,D*4D
$GPGGA,194021.000,3401.7076,N,11711.3703,W,2,10,1.0,492.0,M,-32.5,M,4.0,0000*4E
$GPGSA,M,3,32,10,27,23,20,21,18,08,24,11,,,1.9,1.0,1.6*32
$GPRMC,194021.000,A,3401.7076,N,11711.3703,W,30.47,131.11,061020,,,D*40
$GPGGA,194022.000,3401.7022,N,11711.3624,W,2,10,1.0,492.7,M,-32.5,M,5.0,0000*4E
$GPGSA,M,3,32,10,27,23,20,21,18,08,24,11,,,1.9,1.0,1.6*32
$GPRMC,194022.000,A,3401.7022,N,11711.3624,W,30.26,127.82,061020,,,D*4C
$GPGGA,194023.000,3401.6974,N,11711.3541,W,2,10,1.0,493.5,M,-32.5,M,6.0,0000*44
$GPGSA,M,3,32,10,27,23,20,21,18,08,24,11,,,1.9,1.0,1.6*32
$GPGSV,3,1,12,32,62,208,43,10,62,006,48,27,46,259,44,23,43,052,46*75
$GPGSV,3,2,12,20,42,061,47,21,36,316,45,18,30,122,45,08,29,300,42*74
$GPGSV,3,3,12,24,19,061,33,11,10,317,38,51,49,162,44,15,72,060,*77
$GPRMC,194023.000,A,3401.6974,N,11711.3541,W,30.05,122.67,061020,,,D*49
$GPGGA,194024.000,3401.6934,N,11711.3453,W,2,10,1.0,494.2,M,-32.5,M,2.0,0000*41
$GPGSA,M,3,32,10,27,23,20,21,18,08,24,11,,,1.9,1.0,1.6*32
$GPRMC,194024.000,A,3401.6934,N,11711.3453,W,30.00,117.05,061020,,,D*4F
$GPGGA,194025.000,3401.6900,N,11711.3361,W,2,10,1.0,495.0,M,-32.5,M,2.0,0000*42
$GPGSA,M,3,32,10,27,23,20,21,18,08,24,11,,,1.9,1.0,1.6*32
$GPRMC,194025.000,A,3401.6900,N,11711.3361,W,29.83,112.54,061020,,,D*4D
$GPGGA,194026.000,3401.6873,N,11711.3268,W,2,10,1.0,495.7,M,-32.5,M,3.0,0000*4A
$GPGSA,M,3,32,10,27,23,20,21,18,08,24,11,,,1.9,1.0,1.6*32
$GPRMC,194026.000,A,3401.6873,N,11711.3268,W,28.96,108.37,061020,,,D*48
$GPGGA,194027.000,3401.6851,N,11711.3177,W,2,10,1.0,496.3,M,-32.5,M,2.0,0000*40
$GPGSA,M,3,32,10,27,23,20,21,18,08,24,11,,,1.9,1.0,1.6*32
$GPRMC,194027.000,A,3401.6851,N,11711.3177,W,27.77,105.98,061020,,,D*4C
$GPGGA,194028.000,3401.6832,N,11711.3088,W,2,10,1.0,497.1,M,-32.5,M,3.0,0000*49
$GPGSA,M,3,32,10,27,23,20,21,18,08,24,11,,,1.9,1.0,1.6*32
$GPGSV,3,1,12,32,62,208,46,10,62,006,48,27,46,259,44,23,43,052,46*70
$GPGSV,3,2,12,20,42,061,47,21,36,316,45,18,30,122,44,08,29,300,43*74
$GPGSV,3,3,12,24,19,061,35,11,10,317,38,51,49,162,45,15,72,060,*70
$GPRMC,194028.000,A,3401.6832,N,11711.3088,W,26.94,105.70,061020,,,D*4D
$GPGGA,194029.000,3401.6811,N,11711.3004,W,2,10,1.0,497.7,M,-32.5,M,2.0,0000*4A
$GPGSA,M,3,32,10,27,23,20,21,18,08,24,11,,,1.9,1.0,1.6*32
$GPRMC,194029.000,A,3401.6811,N,11711.3004,W,25.49,109.02,061020,,,D*43
$GPGGA,194030.000,3401.6784,N,11711.2928,W,2,10,1.0,498.4,M,-32.5,M,2.0,0000*4B
$GPGSA,M,3,32,10,27,23,20,21,18,08,24,11,,,1.9,1.0,1.6*32
$GPRMC,194030.000,A,3401.6784,N,11711.2928,W,24.35,118.03,061020,,,D*45
$GPGGA,194031.000,3401.6747,N,11711.2861,W,2,10,1.0,499.2,M,-32.5,M,2.0,0000*4E
$GPGSA,M,3,32,10,27,23,20,21,08,18,24,11,,,1.9,1.0,1.6*32
$GPRMC,194031.000,A,3401.6747,N,11711.2861,W,24.26,130.15,061020,,,D*48
$GPGGA,194032.000,3401.6698,N,11711.2804,W,2,10,1.0,500.0,M,-32.5,M,2.0,0000*4E
$GPGSA,M,3,32,10,27,23,20,21,08,18,24,11,,,1.9,1.0,1.6*32
$GPRMC,194032.000,A,3401.6698,N,11711.2804,W,24.76,140.35,061020,,,D*4B
$GPGGA,194033.000,3401.6640,N,11711.2756,W,2,10,1.0,500.9,M,-32.5,M,3.0,0000*4A
$GPGSA,M,3,32,10,27,23,20,21,08,18,24,11,,,1.9,1.0,1.6*32
$GPGSV,3,1,12,32,64,209,47,10,61,009,48,27,45,257,46,23,42,054,46*72
$GPGSV,3,2,12,20,41,062,47,21,37,316,45,08,30,298,37,18,29,123,44*77
$GPGSV,3,3,12,24,19,060,40,11,11,316,36,51,49,162,48,15,70,057,*76
$GPRMC,194033.000,A,3401.6640,N,11711.2756,W,25.82,148.36,061020,,,D*46
$GPGGA,194034.000,3401.6576,N,11711.2713,W,2,10,1.0,501.8,M,-32.5,M,4.0,0000*4D
$GPGSA,M,3,32,10,27,23,20,21,08,18,24,11,,,1.9,1.0,1.6*32
$GPRMC,194034.000,A,3401.6576,N,11711.2713,W,26.74,151.58,061020,,,D*4C
$GPGGA,194035.000,3401.6509,N,11711.2672,W,2,10,1.0,502.6,M,-32.5,M,2.0,0000*49
$GPGSA,M,3,32,10,27,23,20,21,08,18,24,11,,,1.9,1.0,1.6*32
$GPRMC,194035.000,A,3401.6509,N,11711.2672,W,27.66,152.63,061020,,,D*4A
$GPGGA,194036.000,3401.6438,N,11711.2631,W,2,10,1.0,503.4,M,-32.5,M,2.0,0000*4D
$GPGSA,M,3,32,10,27,23,20,21,08,18,24,11,,,1.9,1.0,1.6*32
$GPRMC,194036.000,A,3401.6438,N,11711.2631,W,28.56,153.27,061020,,,D*40
$GPGGA,194037.000,3401.6365,N,11711.2589,W,2,10,1.0,504.2,M,-32.5,M,2.0,0000*42
$GPGSA,M,3,32,10,27,23,20,21,08,18,24,11,,,1.9,1.0,1.6*32
$GPRMC,194037.000,A,3401.6365,N,11711.2589,W,29.08,153.91,061020,,,D*49
$GPGGA,194038.000,3401.6292,N,11711.2549,W,2,10,1.0,505.3,M,-32.5,M,2.0,0000*48
$GPGSA,M,3,32,10,27,23,20,21,08,18,24,11,,,1.9,1.0,1.6*32
$GPGSV,3,1,12,32,64,209,48,10,61,009,49,27,45,257,45,23,42,054,44*7D
$GPGSV,3,2,12,20,41,062,43,21,37,316,45,08,30,298,43,18,29,123,43*77
$GPGSV,3,3,12,24,19,060,36,11,11,316,40,51,49,162,48,15,70,057,*76
$GPRMC,194038.000,A,3401.6292,N,11711.2549,W,28.99,155.52,061020,,,D*43
$GPGGA,194039.000,3401.6219,N,11711.2512,W,2,10,1.0,506.3,M,-32.5,M,2.0,0000*47
$GPGSA,M,3,32,10,27,23,20,21,08,18,24,11,,,1.9,1.0,1.6*32
$GPRMC,194039.000,A,3401.6219,N,11711.2512,W,28.00,157.41,061020,,,D*4F
$GPGGA,194040.000,3401.6147,N,11711.2479,W,2,10,1.0,507.4,M,-32.5,M,3.0,0000*4A
$GPGSA,M,3,32,10,27,23,20,21,08,18,24,11,,,1.9,1.0,1.6*32
$GPRMC,194040.000,A,3401.6147,N,11711.2479,W,26.88,159.88,061020,,,D*40
$GPGGA,194041.000,3401.6078,N,11711.2451,W,2,09,1.1,508.3,M,-32.5,M,2.0,0000*4C
$GPGSA,M,3,32,10,27,23,20,21,08,18,24,,,,2.3,1.1,2.1*3E
$GPRMC,194041.000,A,3401.6078,N,11711.2451,W,25.67,162.33,061020,,,D*4C
$GPGGA,194042.000,3401.6012,N,11711.2427,W,2,09,1.1,509.0,M,-32.5,M,2.0,0000*40
$GPGSA,M,3,32,10,27,23,20,21,08,18,24,,,,2.3,1.1,2.1*3E
$GPRMC,194042.000,A,3401.6012,N,11711.2427,W,23.84,163.17,061020,,,D*4E
$GPGGA,194043.000,3401.5951,N,11711.2402,W,2,09,1.1,509.5,M,-32.5,M,2.0,0000*4E
$GPGSA,M,3,32,10,27,23,20,21,08,18,24,,,,2.3,1.1,2.1*3E
$GPGSV,3,1,12,32,64,209,48,10,61,009,49,27,45,257,40,23,42,054,42*7E
$GPGSV,3,2,12,20,41,062,43,21,37,316,40,08,30,298,38,18,29,123,39*73
$GPGSV,3,3,12,24,19,060,39,51,49,162,46,15,70,057,,22,46,295,*7B
$GPRMC,194043.000,A,3401.5951,N,11711.2402,W,23.01,158.35,061020,,,D*40
$GPGGA,194044.000,3401.5893,N,11711.2370,W,2,09,1.1,509.9,M,-32.5,M,3.0,0000*49
$GPGSA,M,3,32,10,27,23,20,21,08,18,24,,,,2.3,1.1,2.1*3E
$GPRMC,194044.000,A,3401.5893,N,11711.2370,W,23.11,152.61,061020,,,D*40
$GPGGA,194045.000,3401.5841,N,11711.2325,W,2,10,1.0,510.5,M,-32.5,M,4.0,0000*4D
$GPGSA,M,3,32,10,27,23,20,21,08,18,24,11,,,1.9,1.0,1.6*32
$GPRMC,194045.000,A,3401.5841,N,11711.2325,W,23.65,139.42,061020,,,D*41
$GPGGA,194046.000,3401.5797,N,11711.2268,W,2,10,1.0,511.2,M,-32.5,M,5.0,0000*45
$GPGSA,M,3,32,10,27,23,20,21,08,18,24,11,,,1.9,1.0,1.6*32
$GPRMC,194046.000,A,3401.5797,N,11711.2268,W,23.58,131.52,061020,,,D*49
$GPGGA,194047.000,3401.5761,N,11711.2204,W,2,10,1.0,511.7,M,-32.5,M,2.0,0000*45
$GPGSA,M,3,32,10,27,23,20,21,08,18,24,11,,,1.9,1.0,1.6*32
$GPRMC,194047.000,A,3401.5761,N,11711.2204,W,23.16,123.19,061020,,,D*4D
$GPGGA,194048.000,3401.5733,N,11711.2134,W,2,10,1.0,512.7,M,-32.5,M,2.0,0000*4E
$GPGSA,M,3,32,10,27,23,20,21,08,18,24,11,,,1.9,1.0,1.6*32
$GPGSV,3,1,12,32,64,209,45,10,61,009,49,27,45,257,40,23,42,054,46*77
$GPGSV,3,2,12,20,41,062,45,21,37,316,44,08,30,298,42,18,29,123,46*74
$GPGSV,3,3,12,24,19,060,39,11,11,316,32,51,49,162,45,15,70,057,*71
$GPRMC,194048.000,A,3401.5733,N,11711.2134,W,23.12,112.91,061020,,,D*43
$GPGGA,194049.000,3401.5718,N,11711.2059,W,2,10,1.0,513.8,M,-32.5,M,2.0,0000*42
$GPGSA,M,3,32,10,27,23,20,21,08,18,24,11,,,1.9,1.0,1.6*32
$GPRMC,194049.000,A,3401.5718,N,11711.2059,W,22.32,101.52,061020,,,D*4F
$GPGGA,194050.000,3401.5715,N,11711.1984,W,2,10,1.0,514.6,M,-32.5,M,3.0,0000*45
$GPGSA,M,3,32,10,27,23,20,21,08,18,24,11,,,1.9,1.0,1.6*32
$GPRMC,194050.000,A,3401.5715,N,11711.1984,W,21.75,88.80,061020,,,D*7F
$GPGGA,194051.000,3401.5727,N,11711.1912,W,2,09,1.1,515.3,M,-32.5,M,4.0,0000*40
$GPGSA,M,3,32,10,27,23,20,21,08,18,24,,,,2.3,1.1,2.1*3E
$GPRMC,194051.000,A,3401.5727,N,11711.1912,W,21.47,74.76,061020,,,D*7B
$GPGGA,194052.000,3401.5753,N,11711.1846,W,2,09,1.1,516.0,M,-32.5,M,5.0,0000*41
$GPGSA,M,3,32,10,27,23,20,21,08,18,24,,,,2.3,1.1,2.1*3E
$GPRMC,194052.000,A,3401.5753,N,11711.1846,W,21.24,62.05,061020,,,D*7D
$GPGGA,194053.000,3401.5789,N,11711.1788,W,2,10,1.0,516.7,M,-32.5,M,2.0,0000*43
$GPGSA,M,3,32,10,27,23,20,21,08,18,24,11,,,1.9,1.0,1.6*32
$GPGSV,3,1,12,32,64,209,47,10,61,009,49,27,45,257,47,23,42,054,46*72
$GPGSV,3,2,12,20,41,062,46,21,37,316,45,08,30,298,43,18,29,123,41*70
$GPGSV,3,3,12,24,19,060,40,11,11,316,36,51,49,162,44,15,70,057,*7A
$GPRMC,194053.000,A,3401.5789,N,11711.1788,W,20.81,51.10,061020,,,D*7C
$GPGGA,194054.000,3401.5833,N,11711.1740,W,2,09,1.1,517.2,M,-32.5,M,2.0,0000*43
$GPGSA,M,3,32,10,27,23,20,21,08,18,24,,,,2.3,1.1,2.1*3E
$GPRMC,194054.000,A,3401.5833,N,11711.1740,W,19.86,40.08,061020,,,D*75
$GPGGA,194055.000,3401.5878,N,11711.1702,W,2,10,1.0,517.6,M,-32.5,M,1.0,0000*45
$GPGSA,M,3,32,10,27,23,20,21,08,18,24,11,,,1.9,1.0,1.6*32
$GPRMC,194055.000,A,3401.5878,N,11711.1702,W,18.84,35.12,061020,,,D*77
$GPGGA,194056.000,3401.5920,N,11711.1665,W,2,10,1.0,517.4,M,-32.5,M,2.0,0000*4B
$GPGSA,M,3,32,10,27,23,20,21,08,18,24,11,,,1.9,1.0,1.6*32
$GPRMC,194056.000,A,3401.5920,N,11711.1665,W,18.13,41.55,061020,,,D*76
$GPGGA,194057.000,3401.5954,N,11711.1620,W,2,10,1.0,517.4,M,-32.5,M,3.0,0000*49
$GPGSA,M,3,32,10,27,23,20,21,08,18,24,11,,,1.9,1.0,1.6*32
$GPRMC,194057.000,A,3401.5954,N,11711.1620,W,17.88,57.23,061020,,,D*7E
$GPGGA,194058.000,3401.5977,N,11711.1563,W,2,09,1.1,517.0,M,-32.5,M,4.0,0000*49
$GPGSA,M,3,32,10,27,23,20,21,08,18,24,,,,2.3,1.1,2.1*3E
$GPGSV,3,1,12,32,64,209,47,10,61,009,49,27,45,257,46,23,42,054,46*73
$GPGSV,3,2,12,20,41,062,46,21,37,316,45,08,30,298,43,18,29,123,42*73
$GPGSV,3,3,12,24,19,060,41,11,11,316,38,51,49,162,44,15,70,057,*75
$GPRMC,194058.000,A,3401.5977,N,11711.1563,W,19.36,72.21,061020,,,D*7A
$GPGGA,194059.000,3401.5990,N,11711.1496,W,2,10,1.0,516.3,M,-32.5,M,5.0,0000*40
$GPGSA,M,3,32,10,27,23,20,21,08,18,24,11,,,1.9,1.0,1.6*32
$GPRMC,194059.000,A,3401.5990,N,11711.1496,W,21.83,81.65,061020,,,D*70
